City_ID,City,Lat,Lng,Max Temp,Humidity,Cloudiness,Wind Speed,Country,Date
0,jamestown,42.097,-79.2353,-6.83,86,0,3.6,US,1675309910
1,colares,38.7992,-9.4469,8.94,70,0,5.81,PT,1675310638
2,belmonte,-15.8631,-38.8828,23.99,86,10,2.08,BR,1675310639
3,mataura,-46.1927,168.8643,19.35,95,100,0.34,NZ,1675310192
4,ushuaia,-54.8,-68.3,11.81,76,40,2.57,AR,1675310181
5,gulfport,30.3674,-89.0928,16.03,83,100,2.06,US,1675310367
6,punta arenas,-53.15,-70.9167,14.06,58,100,3.09,CL,1675310190
7,mar del plata,-38.0023,-57.5575,21.16,84,0,2.57,AR,1675310169
8,galle,6.0367,80.217,24.86,82,100,3.32,LK,1675310639
9,alofi,-19.0595,-169.9187,26.94,83,100,4.63,NU,1675310182
10,bengkulu,-3.8004,102.2655,28.77,68,97,3.52,ID,1675310188
11,atuona,-9.8,-139.0333,25.87,81,93,7.22,PF,1675310120
12,okhotsk,59.3833,143.3,-17.52,86,100,6.28,RU,1675310257
13,blythe,33.6103,-114.5964,11.38,18,0,3.09,US,1675310498
14,saskylakh,71.9167,114.0833,-26.24,99,99,2.42,RU,1675310205
15,nanortalik,60.1432,-45.2371,-7.82,83,99,4.35,GL,1675310197
16,bluff,-46.6,168.3333,18.38,89,89,5.2,NZ,1675310205
17,albany,42.6001,-73.9662,-6.97,65,11,0.89,US,1675310187
18,rocha,-34.4833,-54.3333,19.86,82,100,2.36,UY,1675310234
19,chicama,-7.8447,-79.1469,20.3,69,59,1.53,PE,1675310640
20,busselton,-33.65,115.3333,27.19,32,98,5.36,AU,1675310185
21,skibbereen,51.55,-9.2667,10.06,90,100,6.46,IE,1675310145
22,puerto ayora,-0.7393,-90.3518,25.31,96,72,1.51,EC,1675309905
23,carnarvon,-24.8667,113.6333,31.59,56,40,5.73,AU,1675310211
24,ilulissat,69.2167,-51.1,-9.99,52,75,9.26,GL,1675309975
25,vaini,-21.2,-175.2,29.09,74,75,6.17,TO,1675310181
26,santa maria,-29.6842,-53.8069,25.61,83,20,5.66,BR,1675310640
27,georgetown,5.4112,100.3354,29.96,83,20,4.63,MY,1675310153
28,richmond,37.5538,-77.4603,0.13,86,100,0.0,US,1675310641
29,sur,22.5667,59.5289,19.87,65,1,1.69,OM,1675310641
30,develi,38.3906,35.4922,-3.36,90,95,3.61,TR,1675310641
31,butaritari,3.0707,172.7902,26.77,79,100,9.13,KI,1675310217
32,provideniya,64.3833,-173.3,-3.94,80,75,6.0,RU,1675309910
33,qaanaaq,77.484,-69.3632,-22.67,61,0,3.71,GL,1675309929
34,lompoc,34.6391,-120.4579,9.23,87,0,0.0,US,1675310192
35,srivardhan,18.0333,73.0167,27.7,44,10,3.38,IN,1675310642
36,inhambane,-23.865,35.3833,24.44,71,11,3.17,MZ,1675310642
37,saint george,37.1041,-113.5841,4.33,45,0,0.89,US,1675310201
38,hamilton,39.1834,-84.5333,-2.26,68,100,0.52,US,1675310438
39,kapaa,22.0752,-159.319,26.18,83,40,4.63,US,1675310195
40,aneho,6.2333,1.6,27.11,87,6,3.86,TG,1675310643
41,coihaique,-45.5752,-72.0662,13.34,58,0,2.06,CL,1675310643
42,cockburn town,21.4612,-71.1419,25.34,69,0,9.11,TC,1675310424
43,makakilo city,21.3469,-158.0858,26.86,69,0,3.09,US,1675310262
44,hermanus,-34.4187,19.2345,17.11,81,33,2.35,ZA,1675310182
45,elizabeth city,36.2946,-76.2511,4.45,75,100,4.12,US,1675310419
46,inuvik,68.3499,-133.7218,-30.52,72,20,1.54,CA,1675310644
47,vestmannaeyjar,63.4427,-20.2734,3.18,89,100,18.08,IS,1675310644
48,prescott valley,34.5894,-112.3252,3.46,60,0,4.12,US,1675310645
49,hasaki,35.7333,140.8333,10.16,36,100,5.82,JP,1675309944
50,solnechnyy,50.7214,136.6319,-18.39,88,93,1.5,RU,1675310645
51,gusinoye ozero,51.1144,106.2614,-14.67,82,76,1.78,RU,1675310646
52,esperance,-33.8667,121.9,18.66,72,100,5.23,AU,1675310150
53,salalah,17.0151,54.0924,23.05,56,75,3.6,OM,1675310173
54,trairi,-3.2778,-39.2689,24.65,90,100,2.8,BR,1675310641
55,hobart,-42.8794,147.3294,17.92,64,75,10.29,AU,1675310058
56,port elizabeth,-33.918,25.5701,19.62,85,75,5.14,ZA,1675310220
57,batsfjord,70.6345,29.7185,-1.04,86,75,2.57,NO,1675310646
58,punta de bombon,-17.1717,-71.7931,22.79,86,94,1.78,PE,1675310646
59,college,64.8569,-147.8028,-11.34,83,100,2.57,US,1675310268
60,sorland,67.667,12.6934,0.92,46,27,1.07,NO,1675310264
61,safranbolu,41.2508,32.6942,-1.47,87,70,1.06,TR,1675310647
62,cape town,-33.9258,18.4232,18.28,73,20,6.69,ZA,1675310193
63,ancud,-41.8697,-73.8203,11.12,85,56,2.04,CL,1675310201
64,hobyo,5.3505,48.5268,24.54,66,24,6.72,SO,1675310648
65,key largo,25.0865,-80.4473,24.44,79,5,3.0,US,1675310400
66,pevek,69.7008,170.3133,-22.38,95,25,0.25,RU,1675310189
67,latung,5.5,120.8833,26.79,78,87,0.52,PH,1675310648
68,ust-kuyga,70.0167,135.6,-29.0,95,97,1.94,RU,1675310236
69,maceio,-9.6658,-35.7353,23.69,94,40,1.54,BR,1675310649
70,porkhov,57.765,29.5561,-2.21,97,100,2.15,RU,1675310649
71,richards bay,-28.783,32.0377,22.45,90,5,2.48,ZA,1675310200
72,rikitea,-23.1203,-134.9692,26.36,75,5,6.82,PF,1675310182
73,ribeira grande,38.5167,-28.7,12.65,82,19,1.79,PT,1675310193
74,tasiilaq,65.6145,-37.6368,-7.13,76,100,10.17,GL,1675310212
75,constitucion,-35.3333,-72.4167,16.02,63,0,5.07,CL,1675310184
76,castro,-24.7911,-50.0119,17.85,96,71,1.0,BR,1675310161
77,new norfolk,-42.7826,147.0587,17.73,61,99,1.34,AU,1675309947
78,kaitangata,-46.2817,169.8464,20.63,76,90,1.21,NZ,1675310277
79,korla,41.7597,86.1469,-4.67,64,7,0.73,CN,1675310303
80,hofn,64.2539,-15.2082,-1.85,75,95,5.75,IS,1675310191
81,riyadh,24.6877,46.7219,13.08,71,63,2.55,SA,1675310403
82,naujoji akmene,56.3167,22.9,0.3,100,100,0.72,LT,1675310651
83,khasan,42.4308,130.6434,-5.05,45,4,7.77,RU,1675310651
84,mongomo,1.6274,11.3135,19.0,95,18,0.62,GQ,1675310652
85,mogadishu,2.0371,45.3438,24.49,78,99,6.51,SO,1675310306
86,jatai,-17.8814,-51.7144,20.05,89,96,1.18,BR,1675310574
87,tilichiki,60.4667,166.1,-11.31,94,100,2.68,RU,1675310653
88,lorengau,-2.0226,147.2712,29.67,63,87,2.36,PG,1675310185
89,chuy,-33.6971,-53.4616,21.15,79,47,3.27,UY,1675310226
90,nouadhibou,20.931,-17.0347,16.17,77,97,9.52,MR,1675310015
91,lebu,-37.6167,-73.65,13.52,84,0,8.78,CL,1675309976
92,pisco,-13.7,-76.2167,23.03,88,0,5.66,PE,1675310109
93,bredasdorp,-34.5322,20.0403,16.7,84,9,0.74,ZA,1675310195
94,oussouye,12.485,-16.5469,21.1,44,4,4.18,SN,1675310654
95,mundra,22.85,69.7333,19.68,38,39,4.88,IN,1675310654
96,yellowknife,62.456,-114.3525,-36.36,67,0,1.54,CA,1675310108
97,lasa,46.6166,10.7002,3.49,94,58,3.43,IT,1675310240
98,guerrero negro,27.9769,-114.0611,14.11,61,0,4.18,MX,1675310077
99,buraydah,26.326,43.975,10.25,51,0,2.26,SA,1675310233
100,oktyabrskiy,54.4815,53.471,-13.84,93,100,1.47,RU,1675310655
101,adrar,20.5022,-10.0711,14.91,17,100,4.64,MR,1675310655
102,saint-philippe,-21.3585,55.7679,26.77,79,16,3.27,RE,1675310255
103,priladozhskiy,59.85,31.4833,-1.93,1,100,3.19,RU,1675310656
104,cayenne,4.9333,-52.3333,23.02,94,75,0.0,GF,1675310656
105,aklavik,68.2191,-135.0107,-33.68,99,60,3.3,CA,1675310300
106,tuktoyaktuk,69.4541,-133.0374,-37.0,67,75,2.57,CA,1675310117
107,touros,-5.1989,-35.4608,26.16,75,100,4.3,BR,1675310229
108,mahebourg,-20.4081,57.7,27.36,88,40,1.54,MU,1675309971
109,along,28.1667,94.7667,23.45,38,4,0.31,IN,1675310656
110,cidreira,-30.1811,-50.2056,23.68,92,2,2.8,BR,1675310225
111,taltal,-25.4,-70.4833,20.55,84,43,0.95,CL,1675310657
112,faanui,-16.4833,-151.75,27.83,77,35,8.17,PF,1675310022
113,karratha,-20.7377,116.8463,33.96,48,24,5.22,AU,1675310431
114,cervo,43.6702,-7.4101,8.38,82,7,6.55,ES,1675310657
115,nikolskoye,59.7035,30.7861,-1.06,95,100,2.63,RU,1675310189
116,vardo,70.3705,31.1107,-2.01,86,100,11.32,NO,1675310190
117,antropovo,58.3988,43.0066,-4.63,96,100,2.79,RU,1675310659
118,burns lake,54.2331,-125.7533,-6.32,96,100,1.79,CA,1675310659
119,bud,39.447,-86.1758,-2.99,70,84,1.49,US,1675310660
120,rantepao,-2.9701,119.8978,27.05,70,97,0.9,ID,1675310660
121,kodiak,57.79,-152.4072,-0.27,86,75,2.06,US,1675310208
122,sosnovo-ozerskoye,52.5249,111.5418,-16.47,81,93,4.91,RU,1675310660
123,arraial do cabo,-22.9661,-42.0278,24.07,91,100,2.18,BR,1675310213
124,vila franca do campo,37.7167,-25.4333,12.23,83,96,3.28,PT,1675310296
125,zhangye,38.9342,100.4517,0.24,35,70,2.39,CN,1675310662
126,przhevalskoye,55.5093,31.8482,-2.25,96,100,4.06,RU,1675310662
127,east london,-33.0153,27.9116,20.52,83,0,3.09,ZA,1675310241
128,vaitape,-16.5167,-151.75,27.83,77,33,8.17,PF,1675310663
129,sao joao da barra,-21.6403,-41.0511,23.83,91,98,5.77,BR,1675310289
130,omboue,-1.5746,9.2618,24.56,92,61,1.89,GA,1675310663
131,pisz,53.6274,21.8125,0.44,99,78,2.43,PL,1675310664
132,port alfred,-33.5906,26.891,17.32,92,0,3.66,ZA,1675310191
133,torbay,47.6666,-52.7314,-12.01,80,0,2.68,CA,1675310218
134,gazanjyk,39.2446,55.5154,4.03,87,5,0.86,TM,1675310664
135,fuyu,45.1833,124.8167,-10.31,55,0,4.98,CN,1675310664
136,aswan,24.0934,32.907,9.61,37,0,1.54,EG,1675310246
137,nara,34.6851,135.8049,6.94,37,100,5.37,JP,1675310526
138,nicoya,10.1483,-85.452,23.62,73,32,5.1,CR,1675310665
139,sitka,57.0531,-135.33,4.94,70,100,5.14,US,1675310200
140,sao filipe,14.8961,-24.4956,21.28,74,75,5.22,CV,1675310270
141,taoudenni,22.6783,-3.9836,12.65,22,93,5.05,ML,1675310041
142,pemangkat,1.1667,108.9667,27.8,75,91,2.1,ID,1675310665
143,souillac,-20.5167,57.5167,25.21,88,40,1.54,MU,1675310209
144,scarborough,54.2797,-0.4044,8.84,85,95,4.02,GB,1675310666
145,scottsbluff,41.8666,-103.6672,-2.38,73,0,2.06,US,1675310667
146,gunnedah,-30.9833,150.25,33.81,16,1,5.64,AU,1675310668
147,zyryanka,65.75,150.85,-30.89,97,92,2.28,RU,1675310668
148,tigil,57.8,158.6667,-14.79,89,54,1.51,RU,1675310669
149,cherskiy,68.75,161.3,-21.17,99,98,1.39,RU,1675310088
150,picota,-6.9197,-76.3304,22.76,91,99,0.12,PE,1675310669
151,grants,35.1473,-107.8514,-4.87,58,0,2.06,US,1675310413
152,padang,-0.9492,100.3543,30.03,65,75,2.02,ID,1675310328
153,takaka,-40.85,172.8,22.53,84,100,3.26,NZ,1675310670
154,ponta do sol,32.6667,-17.1,17.35,65,75,4.64,PT,1675310182
155,cheyenne,41.14,-104.8203,-1.68,56,0,10.8,US,1675310611
156,waw,7.7029,27.9953,22.42,25,8,1.88,SS,1675310670
157,xining,36.6167,101.7667,-0.49,30,23,1.13,CN,1675310671
158,hilo,19.7297,-155.09,26.27,84,40,3.09,US,1675310186
159,kaoma,-14.7833,24.8,17.86,95,100,1.56,ZM,1675310671
160,chokurdakh,70.6333,147.9167,-22.91,98,100,1.84,RU,1675310246
161,barcelos,41.5388,-8.6151,8.25,78,0,2.61,PT,1675310672
162,gravdal,68.1214,13.5031,1.02,72,61,3.1,NO,1675310389
163,ahuimanu,21.4447,-157.8378,26.53,80,20,2.57,US,1675310672
164,coahuayana,18.7333,-103.6833,20.36,82,37,1.87,MX,1675310673
165,ulladulla,-35.35,150.4667,29.95,32,67,3.72,AU,1675310242
166,hienghene,-20.6833,164.9333,27.57,62,99,1.44,NC,1675310673
167,mumford,5.2618,-0.759,25.05,93,1,2.05,GH,1675310673
168,cedar city,37.6775,-113.0619,-7.46,68,0,0.0,US,1675310674
169,valle de allende,26.9333,-105.4,7.58,76,9,0.84,MX,1675310674
170,barrow,71.2906,-156.7887,-21.99,84,0,10.29,US,1675310188
171,sabzevar,36.2126,57.6819,0.6,100,20,2.06,IR,1675310674
172,victoria,22.2855,114.1577,23.31,74,14,8.94,HK,1675310123
173,kayes,14.0,-11.0,23.02,12,1,1.61,ML,1675310675
174,shieli,44.1667,66.75,4.42,94,100,6.04,KZ,1675310675
175,soyo,-6.1349,12.3689,24.91,81,65,2.29,AO,1675310675
176,ambilobe,-13.2,49.05,24.74,91,99,0.68,MG,1675310676
177,leningradskiy,69.3833,178.4167,-23.98,99,76,2.49,RU,1675310307
178,grand junction,39.0639,-108.5507,-0.75,70,0,2.06,US,1675310677
179,najran,17.4924,44.1277,14.36,35,36,2.76,SA,1675310246
180,katobu,-4.9408,122.5276,29.86,67,91,3.08,ID,1675310516
181,nanakuli,21.3906,-158.1547,26.66,67,0,2.57,US,1675310677
182,port hedland,-20.3167,118.5667,31.71,61,3,5.34,AU,1675310262
183,vyazma,55.2104,34.2951,-3.45,95,100,5.1,RU,1675310678
184,broome,42.2506,-75.833,-6.66,73,0,2.06,US,1675310284
185,pringsewu,-5.3582,104.9744,28.25,77,100,1.49,ID,1675310680
186,kruisfontein,-34.0033,24.7314,14.38,71,65,2.62,ZA,1675310518
187,kamenka,51.3223,42.7678,-2.39,97,100,3.34,RU,1675310680
188,nelson bay,-32.7167,152.15,31.16,72,23,8.94,AU,1675310269
189,huizhou,23.0833,114.4,25.54,50,3,2.79,CN,1675310680
190,bubaque,11.2833,-15.8333,24.99,56,2,7.19,GW,1675310291
191,hefei,31.8639,117.2808,2.01,55,0,5.0,CN,1675310458
192,bandarbeyla,9.4942,50.8122,23.83,64,4,6.57,SO,1675310681
193,hanna,51.6334,-111.9018,-18.41,80,100,0.45,CA,1675310448
194,ostrovnoy,68.0531,39.5131,-8.57,92,46,9.4,RU,1675310681
195,itambacuri,-18.0311,-41.685,19.77,96,95,1.69,BR,1675310682
196,empangeni,-28.762,31.8933,21.35,92,1,1.52,ZA,1675310683
197,banda aceh,5.5577,95.3222,28.37,69,88,2.65,ID,1675310683
198,kirkwall,58.9848,-2.9587,4.98,93,100,3.09,GB,1675310683
199,mezen,65.8522,44.24,-8.36,95,54,3.59,RU,1675310684
200,newport,51.5877,-2.9984,8.9,91,22,4.05,GB,1675310146
201,varna,43.2167,27.9167,4.02,85,99,2.06,BG,1675310463
202,paamiut,61.994,-49.6678,-11.11,75,97,2.43,GL,1675310685
203,grand-couronne,49.3556,1.0065,7.39,82,100,3.6,FR,1675310686
204,bambanglipuro,-7.95,110.2833,27.18,74,100,0.86,ID,1675310687
205,avarua,-21.2078,-159.775,23.03,94,75,1.03,CK,1675310250
206,ganzhou,28.8184,115.4327,8.38,55,100,3.72,CN,1675310687
207,klaksvik,62.2266,-6.589,1.51,64,100,5.4,FO,1675310219
208,victor harbor,-35.5667,138.6167,16.76,70,85,10.9,AU,1675310687
209,fortuna,40.5982,-124.1573,8.51,68,0,2.24,US,1675310223
210,tiksi,71.6872,128.8694,-27.2,98,100,3.64,RU,1675309951
211,kavieng,-2.5744,150.7967,29.87,61,98,3.26,PG,1675310255
212,kieta,-6.2167,155.6333,29.45,69,85,4.11,PG,1675310314
213,ambon,-3.6954,128.1814,32.08,66,20,2.57,ID,1675310688
214,vilhena,-12.7406,-60.1458,20.08,96,100,1.05,BR,1675310160
215,port lincoln,-34.7333,135.8667,18.67,62,70,12.57,AU,1675310219
216,husavik,66.0449,-17.3389,-6.05,91,99,3.55,IS,1675310252
217,beyneu,45.3167,55.2,-1.24,77,17,2.86,KZ,1675310689
218,dongsheng,39.8161,109.9776,-4.75,15,98,3.66,CN,1675310260
219,brookhaven,31.5791,-90.4407,4.81,96,100,1.84,US,1675310617
220,saint-marc,19.1082,-72.6938,23.48,73,2,4.5,HT,1675310689
221,sao jose do calcado,-21.0253,-41.6544,20.77,87,90,1.9,BR,1675310689
222,kaura namoda,12.5898,6.5779,20.36,19,100,4.46,NG,1675310690
223,bathsheba,13.2167,-59.5167,25.34,73,40,6.17,BB,1675310066
224,honiara,-9.4333,159.95,29.87,70,74,3.05,SB,1675310690
225,geraldton,-28.7667,114.6,40.23,16,0,4.12,AU,1675310194
226,jardim,-21.4803,-56.1381,22.43,98,100,1.41,BR,1675310691
227,qiongshan,20.0058,110.3542,23.99,78,40,6.0,CN,1675310691
228,gorontalo,0.5412,123.0595,29.32,67,89,3.15,ID,1675310691
229,artyom,40.4723,50.333,6.08,88,100,3.49,AZ,1675310692
230,flinders,-34.5833,150.8552,31.25,69,13,3.58,AU,1675310450
231,kangaatsiaq,68.3065,-53.4641,-17.97,95,63,5.2,GL,1675310326
232,gushikawa,26.3544,127.8686,21.57,73,100,5.14,JP,1675310692
233,surt,31.2089,16.5887,14.24,62,97,0.35,LY,1675310692
234,upernavik,72.7868,-56.1549,-27.5,91,85,1.89,GL,1675309914
235,kipini,-2.5257,40.5262,23.98,85,96,0.4,KE,1675310693
236,dikson,73.5069,80.5464,-21.37,95,93,3.25,RU,1675310185
237,vila,42.0304,-8.1588,0.49,88,0,1.88,PT,1675310693
238,kindu,-2.95,25.95,18.74,98,30,0.91,CD,1675310693
239,xiantao,30.3833,113.4,4.07,53,100,6.33,CN,1675310694
240,annamalainagar,11.4,79.7333,24.2,89,100,6.33,IN,1675310694
241,illela,13.7292,5.2975,21.12,16,57,6.58,NG,1675310694
242,kayseri,38.737,35.4968,-1.99,80,100,4.12,TR,1675310418
243,udimskiy,61.1417,45.9144,-7.09,98,100,1.78,RU,1675310695
244,polson,47.6936,-114.1632,-4.17,94,97,0.43,US,1675310695
245,kitimat,54.0524,-128.6534,1.21,100,100,1.28,CA,1675310430
246,tuatapere,-46.1333,167.6833,24.48,56,100,1.72,NZ,1675310194
247,khunti,23.0833,85.2833,15.06,16,100,3.06,IN,1675310696
248,osoyoos,49.0331,-119.4524,-0.58,69,88,1.54,CA,1675310696
249,alihe,50.5667,123.7167,-13.19,60,4,2.62,CN,1675310696
250,passo de camaragibe,-9.2368,-35.4901,23.75,91,23,0.89,BR,1675310697
251,atar,20.5169,-13.0499,19.24,12,100,2.74,MR,1675310207
252,bokoro,12.3807,17.0568,19.75,22,9,5.87,TD,1675310697
253,nome,64.5011,-165.4064,-6.96,100,100,4.12,US,1675310300
254,napier,-39.4833,176.9167,20.71,91,94,1.34,NZ,1675310578
255,ahipara,-35.1667,173.1667,22.83,75,100,3.18,NZ,1675310697
256,thompson,55.7435,-97.8558,-29.91,63,40,6.17,CA,1675309898
257,amapa,1.0,-52.0,21.25,100,100,0.08,BR,1675310698
258,mahajanga,-15.7167,46.3167,23.01,100,40,3.6,MG,1675310698
259,cabo san lucas,22.8909,-109.9124,19.17,75,0,2.06,MX,1675310074
260,jobner,26.9667,75.3833,14.68,34,0,2.79,IN,1675310699
261,viedma,-40.8135,-62.9967,18.42,75,77,4.81,AR,1675310238
262,teahupoo,-17.8333,-149.2667,26.98,73,38,8.81,PF,1675310699
263,beroroha,-21.6667,45.1667,23.66,80,97,1.29,MG,1675310699
264,andenes,69.3143,16.1194,-2.26,93,8,4.12,NO,1675310700
265,bambous virieux,-20.3428,57.7575,27.9,88,40,1.54,MU,1675310214
266,pedasi,7.5333,-80.0333,23.93,80,64,9.75,PA,1675310700
267,olafsvik,64.8945,-23.7142,-0.53,72,100,11.53,IS,1675310233
268,deputatskiy,69.3,139.9,-26.72,97,100,1.53,RU,1675310701
269,sola,-13.8833,167.55,27.88,71,19,1.32,VU,1675310701
270,opuwo,-18.0607,13.84,18.62,52,98,0.63,NA,1675310602
271,imelda,7.65,123.95,28.6,75,100,1.71,PH,1675310701
272,ilhabela,-23.7781,-45.3581,24.72,86,100,1.97,BR,1675310702
273,jawhar,2.7809,45.5005,22.38,82,54,4.55,SO,1675310702
274,uyuni,-20.4597,-66.825,11.26,57,32,8.29,BO,1675310702
275,port victoria,0.0939,33.9756,20.29,75,82,3.35,KE,1675310703
276,laguna,38.421,-121.4238,10.05,68,75,3.09,US,1675310559
277,oriximina,-1.7656,-55.8661,22.37,95,100,1.87,BR,1675310625
278,inta,66.0317,60.1659,-5.08,86,58,7.85,RU,1675310288
279,bay city,43.5945,-83.8889,-5.82,65,40,5.66,US,1675310406
280,asau,46.4333,26.4,-0.4,83,99,4.36,RO,1675309989
281,tuy hoa,13.0833,109.3,23.92,93,98,2.53,VN,1675310703
282,nemuro,43.3236,145.575,-4.55,68,66,11.0,JP,1675310704
283,tiznit,29.5833,-9.5,8.71,37,0,1.49,MA,1675310256
284,dunedin,-45.8742,170.5036,23.22,72,98,0.89,NZ,1675310704
285,santa isabel do rio negro,-0.4139,-65.0192,23.35,78,62,0.53,BR,1675310705
286,strezhevoy,60.7333,77.5889,-15.11,99,99,2.12,RU,1675310705
287,loandjili,-4.7561,11.8578,24.06,94,20,1.03,CG,1675310705
288,flin flon,54.7682,-101.865,-27.4,88,100,4.98,CA,1675310706
289,tulle,45.3333,1.8333,2.52,85,91,1.77,FR,1675310706
290,kawalu,-7.3817,108.2082,29.61,59,97,0.33,ID,1675310707
291,derazhnya,49.2692,27.4338,0.18,93,99,4.89,UA,1675310707
292,los llanos de aridane,28.6585,-17.9182,12.86,58,0,4.63,ES,1675310482
293,rawson,-43.3002,-65.1023,17.85,74,22,7.53,AR,1675310324
294,hami,42.8,93.45,-2.84,48,97,0.81,CN,1675310231
295,kununurra,-15.7667,128.7333,33.99,55,37,5.66,AU,1675310322
296,aktanysh,55.7216,54.0829,-11.52,88,100,2.31,RU,1675310708
297,vazante,-17.9869,-46.9078,19.9,84,100,0.51,BR,1675310708
298,progreso,21.2833,-89.6667,25.06,76,1,4.25,MX,1675310200
299,churapcha,62.0025,132.4325,-29.98,92,100,2.02,RU,1675310709
300,lakewood,39.7047,-105.0814,0.1,59,3,1.34,US,1675310414
301,belyy yar,53.6039,91.3903,-19.06,92,100,1.0,RU,1675310709
302,ferme-neuve,46.7001,-75.4493,-17.9,100,77,1.85,CA,1675310710
303,ellsworth,44.5434,-68.4195,-5.2,79,0,0.0,US,1675310710
304,krasnoselkup,65.7,82.4667,-16.87,98,94,4.05,RU,1675310711
305,hambantota,6.1241,81.1185,25.19,100,40,2.06,LK,1675309965
306,avera,33.194,-82.5271,14.75,82,93,2.35,US,1675310471
307,la ronge,55.1001,-105.2842,-27.86,57,0,6.17,CA,1675310327
308,kirakira,-10.4544,161.9205,28.77,79,84,2.72,SB,1675310240
309,agadez,19.75,10.25,11.36,22,6,3.66,NE,1675310711
310,sept-iles,50.2001,-66.3821,-13.0,80,75,2.57,CA,1675310613
311,yerbogachen,61.2767,108.0108,-21.92,96,67,3.51,RU,1675310711
312,airai,-8.9266,125.4092,22.57,72,97,1.72,TL,1675310183
313,kjollefjord,70.9457,27.3465,-2.97,86,40,4.63,NO,1675310712
314,antofagasta,-23.65,-70.4,20.6,79,27,2.61,CL,1675310302
315,eyl,7.9803,49.8164,23.1,69,15,5.89,SO,1675310304
316,hovd,48.0056,91.6419,-14.48,69,83,0.89,MN,1675310310
317,longyearbyen,78.2186,15.6401,-11.09,62,20,8.75,SJ,1675310713
318,codrington,-38.2667,141.9667,13.76,69,100,10.59,AU,1675310196
319,tromso,69.6496,18.957,-3.99,93,100,2.06,NO,1675310629
320,mulege,26.8833,-111.9833,12.78,74,23,2.25,MX,1675310624
321,norman wells,65.282,-126.8329,-39.98,67,40,1.03,CA,1675310195
322,lapua,62.9693,23.0088,-5.37,95,99,1.5,FI,1675310713
323,hinton,53.4001,-117.5857,-14.9,98,100,1.25,CA,1675310675
324,hithadhoo,-0.6,73.0833,26.79,78,40,4.64,MV,1675310187
325,vila velha,-20.3297,-40.2925,25.53,88,40,3.6,BR,1675310457
326,dumai,1.6833,101.45,27.67,75,100,1.52,ID,1675310714
327,lagoa,39.05,-27.9833,13.71,70,2,3.64,PT,1675310639
328,lujan,-34.5703,-59.105,24.84,76,100,0.89,AR,1675310714
329,kasongo-lunda,-6.4667,16.8167,19.35,95,98,0.3,CD,1675310438
330,vostok,46.4856,135.8833,-17.38,88,100,5.95,RU,1675310665
331,karpathos,35.507,27.2132,10.98,54,74,6.17,GR,1675310693
332,boyolangu,-8.1181,111.8935,28.83,70,96,0.63,ID,1675310715
333,muli,2.9167,73.5667,27.17,66,75,5.18,MV,1675310633
334,moose factory,51.2585,-80.6094,-24.01,84,75,3.09,CA,1675310716
335,dezhou,37.4486,116.2925,3.11,13,100,1.71,CN,1675310716
336,mount isa,-20.7333,139.5,27.87,57,75,4.12,AU,1675310280
337,khatanga,71.9667,102.5,-28.82,96,100,2.72,RU,1675310222
338,rio gallegos,-51.6226,-69.2181,16.03,48,0,2.06,AR,1675310540
339,nantucket,41.2835,-70.0995,-2.14,77,0,0.0,US,1675310276
340,narsaq,60.9167,-46.05,-7.88,90,97,2.33,GL,1675310017
341,banjar,-8.19,114.9675,25.08,92,100,2.31,ID,1675310308
342,gobabis,-22.45,18.9667,19.39,72,95,3.52,NA,1675310717
343,preobrazheniye,42.9019,133.9064,-6.92,39,15,6.14,RU,1675310717
344,mana,5.6592,-53.7767,23.93,88,96,2.48,GF,1675310718
345,whyalla,-33.0333,137.5833,22.79,46,41,10.86,AU,1675310719
346,pauini,-7.7136,-66.9764,22.41,98,98,0.9,BR,1675310719
347,abtenau,47.5637,13.346,1.69,97,100,2.9,AT,1675310719
348,dinard,48.6314,-2.0614,8.21,76,100,3.09,FR,1675310720
349,san patricio,28.017,-97.5169,3.93,89,100,4.85,US,1675310253
350,grand island,40.925,-98.342,-5.55,79,0,3.09,US,1675310720
351,praia da vitoria,38.7333,-27.0667,12.64,100,20,1.79,PT,1675310721
352,tabuk,17.4189,121.4443,28.25,68,26,2.5,PH,1675310325
353,luena,-11.7833,19.9167,15.31,97,96,1.44,AO,1675310721
354,pansoy,13.1825,122.5989,25.9,77,5,2.64,PH,1675310721
355,osinovo,55.8809,48.881,-13.95,93,90,2.79,RU,1675310722
356,la primavera,5.4906,-70.4092,24.8,42,4,2.47,CO,1675310722
357,alice springs,-23.7,133.8833,31.23,40,0,5.14,AU,1675310245
358,tura,25.5198,90.2201,23.01,27,15,1.19,IN,1675310331
359,bodrum,37.0383,27.4292,10.71,60,7,3.48,TR,1675310723
360,clyde river,70.4692,-68.5914,-33.87,68,0,7.2,CA,1675310159
361,mangrol,21.1167,70.1167,22.31,31,65,5.14,IN,1675310723
362,bolu,40.6667,31.5833,-4.02,92,75,1.6,TR,1675310724
363,saint anthony,45.0205,-93.218,-9.21,76,0,4.12,US,1675310315
364,cartagena,10.3997,-75.5144,24.79,78,0,5.14,CO,1675310724
365,raudeberg,61.9875,5.1352,-0.63,61,18,3.15,NO,1675310669
366,pangnirtung,66.1451,-65.7125,-28.82,78,100,1.42,CA,1675310221
367,labuhan,-6.8844,112.2051,26.55,80,100,2.27,ID,1675310725
368,kungurtug,50.5994,97.5228,-16.02,89,34,0.45,RU,1675310278
369,dutlwe,-23.9833,23.9,19.75,83,81,3.21,BW,1675310725
370,lata,40.1629,-8.3327,3.88,86,0,1.95,PT,1675310725
371,wahpeton,46.2652,-96.6059,-15.04,85,0,2.06,US,1675310726
372,shuya,56.8487,41.3883,-5.58,96,100,2.63,RU,1675310726
373,naze,28.3667,129.4833,16.51,77,99,6.58,JP,1675310118
374,half moon bay,37.4636,-122.4286,11.03,66,40,2.06,US,1675310727
375,port blair,11.6667,92.75,29.02,74,40,2.57,IN,1675310727
376,moissala,8.3404,17.7663,22.76,20,3,2.26,TD,1675310728
377,tete,-16.1564,33.5867,25.05,88,75,2.06,MZ,1675310298
378,nishihara,26.1842,127.7558,21.6,73,75,5.66,JP,1675310299
379,takoradi,4.8845,-1.7554,25.41,91,0,1.72,GH,1675310450
380,plettenberg bay,-34.0527,23.3716,17.48,76,49,1.72,ZA,1675310728
381,nanga eboko,4.6833,12.3667,18.36,97,7,0.95,CM,1675310729
382,ust-maya,60.4167,134.5333,-27.57,93,97,1.65,RU,1675310202
383,gat,31.61,34.7642,10.6,100,98,5.5,IL,1675310209
384,shimoda,34.6667,138.95,9.2,58,100,5.72,JP,1675310207
385,tombouctou,20.0,-3.0,13.9,18,67,5.04,ML,1675310729
386,biak,-0.9131,122.8766,28.62,63,98,2.63,ID,1675310730
387,san cristobal,7.7669,-72.225,19.1,87,17,0.86,VE,1675310054
388,odda,60.0691,6.5457,1.54,96,40,1.79,NO,1675310730
389,kavaratti,10.5669,72.642,26.92,73,89,3.19,IN,1675310311
390,petropavlovka,50.6114,105.3196,-14.08,81,84,1.12,RU,1675310730
391,cabo rojo,18.0866,-67.1457,24.43,66,1,4.6,PR,1675310731
392,kaili,-3.4626,120.2147,25.92,73,89,1.67,ID,1675310731
393,tezu,27.9167,96.1667,26.34,17,0,1.66,IN,1675310731
394,muros,42.7762,-9.0603,5.47,86,2,2.92,ES,1675310732
395,necochea,-38.5473,-58.7368,17.14,85,90,3.11,AR,1675310321
396,ulaangom,49.9811,92.0667,-23.8,94,42,0.9,MN,1675310732
397,santiago de cao,-7.9589,-79.2392,21.07,88,75,2.06,PE,1675310732
398,yar-sale,66.8333,70.8333,-14.87,97,94,3.73,RU,1675309982
399,presidencia roque saenz pena,-26.7852,-60.4388,26.42,37,0,2.27,AR,1675310733
400,grand-lahou,5.1367,-5.0242,25.08,92,2,1.7,CI,1675310733
401,shache,38.4167,77.2406,-2.94,68,100,1.22,CN,1675310585
402,ningbo,29.8782,121.5495,5.99,70,75,3.0,CN,1675310734
403,byron bay,-28.65,153.6167,29.41,70,100,4.18,AU,1675310224
404,mufumbwe,-13.6833,24.8,17.35,98,100,1.69,ZM,1675310734
405,lavrentiya,65.5833,-171.0,-11.88,95,100,3.47,RU,1675310263
406,alyangula,-13.8483,136.4192,30.74,66,100,1.43,AU,1675310333
407,faya,18.3851,42.4509,11.29,71,19,2.99,SA,1675310206
408,warrnambool,-38.3833,142.4833,13.78,70,100,11.4,AU,1675310736
409,beringovskiy,63.05,179.3167,-5.9,96,100,4.31,RU,1675310736
410,tazovskiy,67.4667,78.7,-16.64,97,96,3.34,RU,1675310327
411,ibra,22.6906,58.5334,17.36,64,0,0.79,OM,1675310736
412,pleasant point,-44.2667,171.1333,25.16,45,85,5.36,NZ,1675310737
413,zhigansk,66.7697,123.3711,-32.28,96,100,7.33,RU,1675310215
414,ndele,8.4109,20.6473,21.93,19,6,1.89,CF,1675310737
415,sanawad,22.1833,76.0667,19.48,26,75,3.41,IN,1675310737
416,malakal,9.5334,31.6605,24.35,18,35,5.07,SS,1675310738
417,qaqortoq,60.7167,-46.0333,-14.45,91,91,2.31,GL,1675310325
418,van,38.4924,43.3831,1.64,55,75,7.2,TR,1675310738
419,mocuba,-16.8392,36.9856,22.16,95,85,1.07,MZ,1675310294
420,uinskoye,56.8817,56.5813,-21.1,95,66,0.85,RU,1675310739
421,namibe,-15.1961,12.1522,21.9,80,100,1.72,AO,1675310211
422,wisconsin rapids,44.3836,-89.8174,-7.84,62,100,2.57,US,1675310729
423,knysna,-34.0363,23.0471,17.64,76,21,1.52,ZA,1675310739
424,novyy urengoy,66.0833,76.6333,-15.32,97,86,3.78,RU,1675310740
425,piacabucu,-10.4056,-36.4344,24.58,86,20,2.26,BR,1675310740
426,bethel,41.3712,-73.414,-1.7,55,0,0.0,US,1675309956
427,manokwari,-0.8667,134.0833,28.56,69,31,2.4,ID,1675310280
428,atherton,53.5237,-2.4935,9.03,86,100,1.34,GB,1675310741
429,chinsali,-10.5414,32.0816,16.08,96,80,0.15,ZM,1675310741
430,svetlogorsk,52.6333,29.7333,0.1,95,100,4.58,BY,1675310229
431,mae sai,20.4335,99.8762,29.27,32,6,0.96,TH,1675310742
432,nyurba,63.2842,118.3319,-21.87,96,100,3.26,RU,1675310222
433,kadhan,24.481,68.9859,18.86,23,2,3.41,PK,1675310742
434,mweka,-4.85,21.5667,18.53,99,92,0.84,CD,1675310743
435,pochutla,15.7432,-96.4661,24.34,73,2,1.67,MX,1675310261
436,saint-joseph,-21.3667,55.6167,26.21,75,12,3.08,RE,1675310743
437,saint-michel-des-saints,46.6834,-73.9159,-14.33,96,82,2.23,CA,1675310744
438,kapit,2.0167,112.9333,33.2,52,96,0.22,MY,1675310744
439,lakatoro,-16.0999,167.4164,28.68,75,48,2.08,VU,1675310744
440,pierre,44.3683,-100.351,-8.27,90,7,2.83,US,1675310470
441,derzhavinsk,51.1,66.3167,-17.34,93,10,4.65,KZ,1675310745
442,yangcun,39.3639,117.0603,0.99,18,100,0.87,CN,1675310745
443,pryozerne,45.2698,36.3303,2.4,75,87,1.98,UA,1675310745
444,neiafu,-18.65,-173.9833,28.38,83,75,4.12,TO,1675310251
445,igrim,63.1906,64.4162,-9.53,95,21,2.64,RU,1675310746
446,seoul,37.5683,126.9778,1.66,40,0,2.57,KR,1675310703
447,luan,46.3592,6.9759,-0.98,86,100,0.57,CH,1675310746
448,saurimo,-9.6608,20.3916,17.79,95,100,1.17,AO,1675310747
449,nikolayevsk-na-amure,53.1406,140.73,-20.47,76,99,2.41,RU,1675310747
450,rio viejo,8.5874,-73.839,22.75,56,5,0.26,CO,1675310747
451,ponnani,10.767,75.9252,27.62,49,96,2.78,IN,1675310748
452,aksarka,66.5606,67.7975,-16.64,97,74,3.93,RU,1675310748
453,kamp-lintfort,51.5,6.5333,8.39,85,100,7.41,DE,1675310748
454,leh,34.1667,77.5833,-10.3,66,94,0.61,IN,1675310749
455,kahului,20.8947,-156.47,25.47,83,20,3.09,US,1675310213
456,marondera,-18.1853,31.5519,14.23,97,26,0.77,ZW,1675310749
457,sistranda,63.7256,8.834,-0.02,62,100,6.23,NO,1675310749
458,sao jose da coroa grande,-8.8978,-35.1478,25.34,80,19,2.38,BR,1675310750
459,oranjestad,12.524,-70.027,24.97,85,20,5.14,AW,1675310718
460,salitrillo,19.4333,-99.85,8.03,70,0,1.0,MX,1675310750
461,manitowoc,44.0667,-87.8001,-5.33,65,100,4.63,US,1675310751
462,natal,-5.795,-35.2094,26.36,78,20,4.63,BR,1675310611
463,moranbah,-22.0016,148.0466,35.24,32,36,4.24,AU,1675310751
464,jega,12.2175,4.3792,21.94,18,96,4.65,NG,1675310752
465,kijang,35.2442,129.2139,5.85,45,93,1.96,KR,1675310752
466,yushu,44.8,126.5333,-11.62,67,2,4.31,CN,1675310752
467,mount gambier,-37.8333,140.7667,14.81,58,93,8.13,AU,1675310235
468,cabedelo,-6.9811,-34.8339,26.37,81,17,3.33,BR,1675310316
469,eureka,40.8021,-124.1637,7.89,90,20,2.24,US,1675310725
470,batayurt,43.3194,46.6854,1.18,93,61,1.12,RU,1675310753
471,onega,63.9061,38.1404,-10.99,98,93,2.52,RU,1675310753
472,bronnoysund,65.4625,12.1997,-4.0,86,100,1.03,NO,1675310754
473,acapulco,16.8634,-99.8901,25.9,73,0,2.06,MX,1675310677
474,hikari,33.955,131.95,9.94,50,91,1.77,JP,1675310754
475,oparino,59.8518,48.2783,-6.88,95,99,3.52,RU,1675310754
476,nehe,48.4833,124.8333,-13.08,71,1,2.87,CN,1675310754
477,san quintin,30.4833,-115.95,13.22,62,0,2.74,MX,1675310755
478,honningsvag,70.9821,25.9704,-3.14,86,100,1.54,NO,1675310269
479,ringebu,61.5167,10.1667,-14.54,90,61,2.68,NO,1675310755
480,dilla,6.41,38.31,16.08,54,33,1.52,ET,1675310755
481,umm lajj,25.0213,37.2685,16.82,49,2,3.32,SA,1675310719
482,brake,53.3333,8.4833,5.13,87,100,9.39,DE,1675310757
483,chiredzi,-21.05,31.6667,20.32,90,33,1.74,ZW,1675310757
484,fougeres,48.35,-1.2,5.92,87,74,2.98,FR,1675310757
485,erenhot,43.6475,111.9767,-8.64,26,100,1.95,CN,1675310211
486,katsuura,35.1333,140.3,8.32,32,100,4.4,JP,1675310245
487,portland,45.5234,-122.6762,4.92,73,40,4.12,US,1675310658
488,pachino,36.7186,15.0907,10.49,76,83,4.67,IT,1675310758
489,henties bay,-22.116,14.2845,17.13,90,100,1.97,NA,1675310758
490,arroyo,41.6096,-4.7969,2.84,85,0,2.06,ES,1675310759
491,te anau,-45.4167,167.7167,20.01,79,100,2.11,NZ,1675309981
492,severo-kurilsk,50.6789,156.125,-4.26,74,58,5.05,RU,1675310038
493,zeya,53.75,127.2667,-17.02,69,58,1.11,RU,1675310759
494,kudeyevskiy,54.8758,56.7567,-19.6,99,95,1.19,RU,1675310760
495,virginia beach,36.8529,-75.978,3.9,66,100,0.45,US,1675310760
496,mandalgovi,45.7625,106.2708,-8.29,41,100,0.95,MN,1675310712
497,ormara,25.2088,64.6357,19.65,45,3,1.9,PK,1675310204
498,eucaliptus,-17.5833,-67.5167,9.43,72,42,3.92,BO,1675310760
499,kandrian,-6.2167,149.55,30.34,65,100,2.74,PG,1675310761
500,calamar,10.2511,-74.9146,23.32,82,6,1.85,CO,1675310761
501,yermish,54.7678,42.2711,-4.46,97,100,2.62,RU,1675310762
502,camacha,33.0833,-16.3333,14.68,63,40,6.69,PT,1675310658
503,mariental,-24.6333,17.9667,23.31,42,85,6.47,NA,1675310332
504,chateau-gontier,47.8333,-0.7,6.64,85,74,3.25,FR,1675310762
505,nizhniy ingash,56.2,96.53,-14.56,94,98,1.55,RU,1675310763
506,kouroussa,10.65,-9.8833,22.5,19,3,1.53,GN,1675310764
507,talnakh,69.4865,88.3972,-12.66,96,100,3.78,RU,1675310227
508,borovoy,55.4333,86.0833,-20.4,84,32,1.0,RU,1675310765
509,greytown,-29.0642,30.5928,15.28,95,2,0.3,ZA,1675310765
510,dudinka,69.4058,86.1778,-12.43,94,100,5.41,RU,1675310541
511,iralaya,15.0,-83.2333,24.69,78,28,4.73,HN,1675310766
512,muisne,0.6,-80.0333,24.09,90,54,1.29,EC,1675310701
513,lianyuan,27.6883,111.6642,6.34,57,100,2.66,CN,1675310767
514,santa rosa,14.3122,121.1114,32.28,72,43,6.17,PH,1675310768
515,shelburne,44.0787,-80.2041,-6.75,91,98,5.85,CA,1675310768
516,tahta,26.7693,31.5021,9.66,67,5,2.6,EG,1675310768
517,qeshm,26.9581,56.2719,17.93,80,39,5.66,IR,1675310769
518,wanning,18.8003,110.3967,23.1,84,99,3.9,CN,1675310770
519,palora,-1.7,-77.9333,20.54,84,100,1.31,EC,1675310770
520,korem,12.5058,39.5228,9.42,59,78,0.66,ET,1675310242
521,miram shah,33.0086,70.0697,12.85,36,98,1.65,PK,1675310536
522,berbera,10.4396,45.0143,23.14,75,3,0.83,SO,1675310771
523,atocha,-20.9333,-66.2333,9.16,69,8,3.55,BO,1675310771
524,clarence town,-32.5833,151.7833,31.08,21,7,4.09,AU,1675310249
525,maragogi,-9.0122,-35.2225,25.07,81,20,2.05,BR,1675310772
526,de haan,51.272,3.0429,8.46,82,75,6.69,BE,1675310773
527,wladyslawowo,54.7909,18.4009,3.6,96,100,4.37,PL,1675310773
528,gafargaon,24.4333,90.5667,23.34,28,78,3.56,BD,1675310773
529,afsin,38.2477,36.914,-2.36,67,100,5.77,TR,1675310774
530,xiongyue,40.1774,122.1228,-5.13,35,99,2.49,CN,1675310774
531,isangel,-19.55,169.2667,29.09,73,79,3.01,VU,1675310196
532,duku,11.2361,4.9073,24.25,15,46,3.22,NG,1675310775
533,pastavy,55.1168,26.8326,-0.47,94,100,3.95,BY,1675310775
534,kapoeta,4.7717,33.5903,26.46,38,71,2.75,SS,1675310775
535,athol,42.5959,-72.2268,-6.06,63,0,3.09,US,1675310776
536,gazli,40.1333,63.45,4.41,90,14,7.08,UZ,1675310776
537,garowe,8.4054,48.4845,18.13,83,0,4.35,SO,1675310776
538,kargil,34.5667,76.1,-14.63,79,100,0.71,IN,1675310777
539,yulara,-25.2406,130.9889,32.0,22,0,7.09,AU,1675310287
540,noumea,-22.2763,166.4572,30.99,71,82,4.19,NC,1675310777
541,mountain home,43.133,-115.6912,-7.92,71,73,3.18,US,1675310778
542,businga,3.3333,20.8833,21.32,72,95,1.05,CD,1675310778
543,brae,60.3964,-1.353,4.24,66,100,0.96,GB,1675310325
544,rundu,-17.9333,19.7667,18.69,91,98,1.62,NA,1675310779
545,hervey bay,-25.2986,152.8535,27.9,77,39,1.41,AU,1675310779
546,iqaluit,63.7506,-68.5145,-33.15,62,75,2.06,CA,1675310224
547,tuchkovo,55.6011,36.4681,-2.11,89,100,4.41,RU,1675310779
548,samarai,-10.6167,150.6667,29.07,73,100,5.58,PG,1675310226
549,dingle,10.9995,122.6711,28.62,73,47,6.49,PH,1675310254
550,fallon,39.4735,-118.7774,-1.42,73,75,1.54,US,1675310780
551,poum,-20.2333,164.0167,27.66,64,100,4.39,NC,1675310232
552,spas-demensk,54.4122,34.0226,-3.09,93,100,4.11,RU,1675310780
553,champagnole,46.7445,5.9135,2.27,92,99,1.54,FR,1675310780
554,sergach,55.5308,45.4661,-5.54,96,100,4.26,RU,1675310781
555,silikatnyy,53.9896,48.3275,-13.3,87,90,2.54,RU,1675310781
556,derac,19.65,-71.8167,22.27,82,1,5.35,HT,1675310782
557,wahiawa,21.5028,-158.0236,24.87,73,100,0.0,US,1675310777
558,armidale,-30.5167,151.65,27.35,24,0,4.78,AU,1675310733
559,kokstad,-30.5472,29.4241,14.12,91,12,1.02,ZA,1675310782
560,voyvozh,62.892,54.9635,-4.76,95,90,3.36,RU,1675310782
561,talara,-4.5772,-81.2719,25.06,79,98,1.27,PE,1675310783
